{
  "pois": [
    {
      "id": "bkk_gaggan",
      "hotel_id": "bangkok_salil",
      "category": "dinner",
      "name": "Gaggan Anand",
      "type": "Indian",
      "desc": "World-famous progressive Indian fine dining",
      "address": "68 Sukhumvit 31, Khlong Tan Nuea, Watthana, Bangkok 10110",
      "lat": 13.7355,
      "lng": 100.5687,
      "website": "https://gaggan.com/",
      "google_place_id": "ChIJdQnuUjSe4jARQX_vDBO5vQM"
    },
    {
      "id": "bkk_nahm",
      "hotel_id": "bangkok_salil",
      "category": "dinner",
      "name": "Nahm",
      "type": "Thai",
      "desc": "Elegant Thai cuisine, Michelin starred",
      "address": "27 South Sathorn Road, Tungmahamek, Sathorn, Bangkok 10120",
      "lat": 13.7226,
      "lng": 100.529,
      "website": "https://www.comohotels.com/en/metropolitanbangkok/dining/nahm",
      "google_place_id": "ChIJR0lA0yOZ4jARGC5ZKKPVWFE"
    },
    {
      "id": "bkk_bolan",
      "hotel_id": "bangkok_salil",
      "category": "dinner",
      "name": "Bo.lan",
      "type": "Thai",
      "desc": "Sustainable farm-to-table Thai",
      "address": "24 Sukhumvit Soi 53, Khlong Tan Nuea, Watthana, Bangkok 10110",
      "lat": 13.7305,
      "lng": 100.5724,
      "website": "https://www.bolan.co.th/",
      "google_place_id": "ChIJy0AzQlie4jARhSjNsm0KQOM"
    },
    {
      "id": "bkk_issaya",
      "hotel_id": "bangkok_salil",
      "category": "dinner",
      "name": "Issaya Siamese Club",
      "type": "Thai",
      "desc": "Thai fine dining in a garden villa",
      "address": "4 Soi Sri Aksorn, Chua Ploeng Road, Sathorn, Bangkok 10120",
      "lat": 13.722,
      "lng": 100.5352,
      "website": "https://www.issaya.com/",
      "google_place_id": "ChIJCWJBpyGZ4jARTONa7dyjM7s"
    },
    {
      "id": "bkk_suhring",
      "hotel_id": "bangkok_salil",
      "category": "dinner",
      "name": "S\u00fchring",
      "type": "German",
      "desc": "Twin chefs' modern German, 3 Michelin stars",
      "address": "10 Yen Akat Soi 3, Chong Nonsi, Yan Nawa, Bangkok 10120",
      "lat": 13.701,
      "lng": 100.5449,
      "website": "https://restaurantsuhring.com/",
      "google_place_id": "ChIJL1LPXRqZ4jARV6HXjqd3bsk"
    },
    {
      "id": "bkk_thipsamai",
      "hotel_id": "bangkok_salil",
      "category": "lunch",
      "name": "Thipsamai",
      "type": "Thai",
      "desc": "Legendary pad thai since 1966",
      "address": "313 Maha Chai Road, Samranrat, Phra Nakhon, Bangkok 10200",
      "lat": 13.7528,
      "lng": 100.5047,
      "website": "https://thipsamai.com/",
      "google_place_id": "ChIJrfD9e4if4jARO5m4xtCSSVg"
    },
    {
      "id": "bkk_jayfai",
      "hotel_id": "bangkok_salil",
      "category": "lunch",
      "name": "Jay Fai",
      "type": "Thai",
      "desc": "Street food queen, Michelin starred crab omelette",
      "address": "327 Maha Chai Road, Samranrat, Phra Nakhon, Bangkok 10200",
      "lat": 13.7533,
      "lng": 100.5052,
      "website": "https://www.instagram.com/jayfaibangkok/",
      "google_place_id": "ChIJv7VpfIif4jARTZaFz_wGFMQ"
    },
    {
      "id": "bkk_somtamnua",
      "hotel_id": "bangkok_salil",
      "category": "lunch",
      "name": "Som Tam Nua",
      "type": "Isaan",
      "desc": "Famous papaya salad & fried chicken",
      "address": "392/14 Siam Square Soi 5, Pathum Wan, Bangkok 10330",
      "lat": 13.7457,
      "lng": 100.5341,
      "google_place_id": "ChIJZRw2TDie4jARIiQnQQQsZHk"
    },
    {
      "id": "bkk_burapa",
      "hotel_id": "bangkok_salil",
      "category": "lunch",
      "name": "Burapa",
      "type": "Thai",
      "desc": "Eastern Thai with creative twist, Bib Gourmand",
      "address": "Soi Sukhumvit 11, Khlong Toei Nuea, Bangkok 10110",
      "lat": 13.7421,
      "lng": 100.5548
    },
    {
      "id": "bkk_appia",
      "hotel_id": "bangkok_salil",
      "category": "lunch",
      "name": "Appia",
      "type": "Italian",
      "desc": "Authentic Roman trattoria hidden in Sukhumvit",
      "address": "20/4 Sukhumvit Soi 31, Khlong Toei Nuea, Bangkok 10110",
      "lat": 13.7362,
      "lng": 100.568,
      "website": "https://www.google.com/search?q=Appia+Restaurant+Bangkok+Sukhumvit+31"
    },
    {
      "id": "bkk_grandpalace",
      "hotel_id": "bangkok_salil",
      "category": "attraction",
      "name": "Grand Palace & Wat Phra Kaew",
      "type": "cultural",
      "desc": "Thailand's most sacred Buddhist temple",
      "address": "Na Phra Lan Road, Phra Nakhon, Bangkok 10200",
      "lat": 13.75,
      "lng": 100.4914,
      "google_place_id": "ChIJaU2zx4Cf4jARJiQYgKKGAQQ",
      "website": "https://www.royalgrandpalace.th/"
    },
    {
      "id": "bkk_watarun",
      "hotel_id": "bangkok_salil",
      "category": "attraction",
      "name": "Wat Arun",
      "type": "cultural",
      "desc": "Iconic Temple of Dawn on the river",
      "address": "158 Wang Doem Road, Wat Arun, Bangkok Yai, Bangkok 10600",
      "lat": 13.7435,
      "lng": 100.4874,
      "google_place_id": "ChIJC4rHYIOe4jARXUociL0sJzU",
      "website": "https://www.google.com/maps/search/Wat+Arun+Bangkok"
    },
    {
      "id": "bkk_chatuchak",
      "hotel_id": "bangkok_salil",
      "category": "attraction",
      "name": "Chatuchak Weekend Market",
      "type": "activity",
      "desc": "World's largest weekend market",
      "address": "Kamphaeng Phet 2 Road, Chatuchak, Bangkok 10900",
      "lat": 13.7999,
      "lng": 100.5504,
      "google_place_id": "ChIJpZLUaMid4jARnb9_ctKAD3I",
      "website": "https://www.chatuchakmarket.org/"
    },
    {
      "id": "bkk_watpho",
      "hotel_id": "bangkok_salil",
      "category": "attraction",
      "name": "Wat Pho",
      "type": "cultural",
      "desc": "Giant reclining Buddha & traditional massage school",
      "address": "2 Sanam Chai Road, Phra Borom Maha Ratchawang, Bangkok 10200",
      "lat": 13.7465,
      "lng": 100.493,
      "website": "https://www.watpho.com/"
    },
    {
      "id": "bkk_jimthompson",
      "hotel_id": "bangkok_salil",
      "category": "attraction",
      "name": "Jim Thompson House",
      "type": "cultural",
      "desc": "Silk merchant's stunning teak house museum",
      "address": "6 Soi Kasemsan 2, Rama 1 Road, Bangkok 10330",
      "lat": 13.7493,
      "lng": 100.5293,
      "website": "https://www.google.com/maps/search/Jim+Thompson+House+Bangkok"
    },
    {
      "id": "bkk_havana",
      "hotel_id": "bangkok_salil",
      "category": "bar",
      "name": "Havana Social",
      "type": "Speakeasy",
      "desc": "Hidden Cuban bar behind a phone booth, great cocktails",
      "address": "Sukhumvit Soi 11, Bangkok 10110",
      "lat": 13.7425,
      "lng": 100.5545,
      "website": "https://www.google.com/search?q=Havana+Social+Bangkok"
    },
    {
      "id": "bkk_octave",
      "hotel_id": "bangkok_salil",
      "category": "bar",
      "name": "Octave Rooftop Bar",
      "type": "Rooftop",
      "desc": "360\u00b0 views from 45th floor, three-tiered rooftop",
      "address": "Marriott Sukhumvit, 2 Sukhumvit Soi 57, Bangkok 10110",
      "lat": 13.726,
      "lng": 100.585,
      "website": "https://www.google.com/search?q=Octave+Rooftop+Bar+Bangkok"
    },
    {
      "id": "bkk_sugarcane",
      "hotel_id": "bangkok_salil",
      "category": "bar",
      "name": "Sugar Cane",
      "type": "Cocktail Bar",
      "desc": "Tropical cocktails in a garden setting",
      "address": "Sukhumvit Soi 11, Bangkok 10110",
      "lat": 13.742,
      "lng": 100.555,
      "website": "https://www.google.com/search?q=Sugar+Cane+Bar+Bangkok"
    },
    {
      "id": "bkk_beam",
      "hotel_id": "bangkok_salil",
      "category": "bar",
      "name": "BEAM",
      "type": "Club/Bar",
      "desc": "Underground club with top DJs and craft cocktails",
      "address": "72 Sukhumvit 55 (Thonglor), Bangkok 10110",
      "lat": 13.731,
      "lng": 100.579,
      "website": "https://www.google.com/search?q=BEAM+Club+Bangkok"
    },
    {
      "id": "bkk_brownsugar",
      "hotel_id": "bangkok_salil",
      "category": "bar",
      "name": "Brown Sugar: The Jazz Boutique",
      "type": "Jazz Bar",
      "desc": "Bangkok's legendary live jazz venue since 1985",
      "address": "469 Phra Sumen Road, Phra Nakhon, Bangkok 10200",
      "lat": 13.762,
      "lng": 100.498,
      "website": "https://www.google.com/search?q=Brown+Sugar+Jazz+Bangkok"
    },
    {
      "id": "lipe_elephant",
      "hotel_id": "koh_lipe_lipe_beach",
      "category": "dinner",
      "name": "Elephant Beach Bar",
      "type": "Thai/Western",
      "desc": "Beachfront dining with fire shows",
      "address": "Sunrise Beach, Koh Lipe, Satun 91000",
      "lat": 6.4908,
      "lng": 99.3073,
      "website": "https://lipebeachresort.com/restaurantbar/"
    },
    {
      "id": "lipe_papayamom",
      "hotel_id": "koh_lipe_lipe_beach",
      "category": "dinner",
      "name": "Papaya Mom",
      "type": "Thai",
      "desc": "Famous Walking Street Thai restaurant",
      "address": "Walking Street, Koh Lipe, Satun 91000",
      "lat": 6.487,
      "lng": 99.304,
      "website": "https://www.instagram.com/papayamomkohlipe/"
    },
    {
      "id": "lipe_tenmoons",
      "hotel_id": "koh_lipe_lipe_beach",
      "category": "dinner",
      "name": "Ten Moons",
      "type": "Spanish/Thai",
      "desc": "Upscale beachfront Mediterranean-Thai fusion",
      "address": "Sunrise Beach South, Koh Lipe, Satun 91000",
      "lat": 6.4838,
      "lng": 99.3095,
      "website": "https://www.tenmoonsliperesort.com/restaurant/"
    },
    {
      "id": "lipe_laluna",
      "hotel_id": "koh_lipe_lipe_beach",
      "category": "dinner",
      "name": "La Luna",
      "type": "Italian",
      "desc": "Handmade pasta & fresh-baked bread",
      "address": "Walking Street, Koh Lipe, Satun 91000",
      "lat": 6.4872,
      "lng": 99.3038
    },
    {
      "id": "lipe_ontherocks",
      "hotel_id": "koh_lipe_lipe_beach",
      "category": "dinner",
      "name": "On The Rocks",
      "type": "Thai/Seafood",
      "desc": "Romantic oceanfront at Serendipity Resort",
      "address": "Sunrise Beach, Koh Lipe, Satun 91000",
      "lat": 6.492,
      "lng": 99.3082,
      "website": "https://www.google.com/search?q=On+The+Rocks+Serendipity+Resort+Koh+Lipe"
    },
    {
      "id": "lipe_pancakelady",
      "hotel_id": "koh_lipe_lipe_beach",
      "category": "lunch",
      "name": "Thai Pancake Lady",
      "type": "Cafe",
      "desc": "Famous banana pancakes & smoothies",
      "address": "Walking Street, Koh Lipe, Satun 91000",
      "lat": 6.4868,
      "lng": 99.3045
    },
    {
      "id": "lipe_thebox",
      "hotel_id": "koh_lipe_lipe_beach",
      "category": "lunch",
      "name": "The Box",
      "type": "Mediterranean",
      "desc": "Stylish Spanish sandwiches on crusty bread",
      "address": "Walking Street, Koh Lipe, Satun 91000",
      "lat": 6.4865,
      "lng": 99.3042,
      "website": "https://www.instagram.com/theboxkohlipe/"
    },
    {
      "id": "lipe_bombay",
      "hotel_id": "koh_lipe_lipe_beach",
      "category": "lunch",
      "name": "Bombay",
      "type": "Indian",
      "desc": "Authentic curries with spices from India",
      "address": "Walking Street, Koh Lipe, Satun 91000",
      "lat": 6.4867,
      "lng": 99.3035
    },
    {
      "id": "lipe_flourflourbakery",
      "hotel_id": "koh_lipe_lipe_beach",
      "category": "lunch",
      "name": "Flour Flour Bakery",
      "type": "Bakery",
      "desc": "Fresh pastries, coffee & light bites",
      "address": "Walking Street, Koh Lipe, Satun 91000",
      "lat": 6.4871,
      "lng": 99.3048
    },
    {
      "id": "lipe_poohbar",
      "hotel_id": "koh_lipe_lipe_beach",
      "category": "lunch",
      "name": "Pooh's Bar & Restaurant",
      "type": "Thai",
      "desc": "Beachfront Thai classics & cocktails",
      "address": "Pattaya Beach, Koh Lipe, Satun 91000",
      "lat": 6.4835,
      "lng": 99.2985,
      "website": "https://www.instagram.com/poohsbarkohlipe/"
    },
    {
      "id": "lipe_8mile",
      "hotel_id": "koh_lipe_lipe_beach",
      "category": "diving",
      "name": "8 Mile Rock",
      "type": "12-30m",
      "desc": "Pinnacle with leopard sharks, barracuda & large pelagics",
      "address": "8 nautical miles south of Koh Lipe, Andaman Sea",
      "lat": 6.345,
      "lng": 99.31
    },
    {
      "id": "lipe_stonehenge",
      "hotel_id": "koh_lipe_lipe_beach",
      "category": "diving",
      "name": "Stonehenge",
      "type": "10-30m",
      "desc": "Boulder formations with soft corals & reef fish",
      "address": "South of Koh Talang, near Koh Lipe, Andaman Sea",
      "lat": 6.4874,
      "lng": 99.3332
    },
    {
      "id": "lipe_kohadang",
      "hotel_id": "koh_lipe_lipe_beach",
      "category": "diving",
      "name": "Koh Adang Reef",
      "type": "5-18m",
      "desc": "Easy reef dive, great for beginners, turtles common",
      "address": "Koh Adang Island, Tarutao National Marine Park",
      "lat": 6.535,
      "lng": 99.278
    },
    {
      "id": "lipe_yonghua",
      "hotel_id": "koh_lipe_lipe_beach",
      "category": "diving",
      "name": "Yong Hua Wreck",
      "type": "28-42m",
      "desc": "Advanced dive, cargo ship with resident groupers",
      "address": "Southwest of Koh Lipe, Andaman Sea",
      "lat": 6.442,
      "lng": 99.252
    },
    {
      "id": "lipe_sunrise",
      "hotel_id": "koh_lipe_lipe_beach",
      "category": "attraction",
      "name": "Sunrise Beach",
      "type": "beach",
      "desc": "Best beach for sunrise views & swimming",
      "address": "East coast, Koh Lipe, Satun 91000",
      "lat": 6.493,
      "lng": 99.3089,
      "website": "https://www.google.com/maps/search/Sunrise+Beach+Koh+Lipe"
    },
    {
      "id": "lipe_walkingstreet",
      "hotel_id": "koh_lipe_lipe_beach",
      "category": "attraction",
      "name": "Walking Street",
      "type": "nightlife",
      "desc": "Beach bars, restaurants & night market",
      "address": "Walking Street, Koh Lipe, Satun 91000",
      "lat": 6.487,
      "lng": 99.304,
      "website": "https://www.google.com/maps/search/Walking+Street+Koh+Lipe"
    },
    {
      "id": "lipe_sunsetbeach",
      "hotel_id": "koh_lipe_lipe_beach",
      "category": "attraction",
      "name": "Sunset Beach",
      "type": "beach",
      "desc": "Quiet beach with stunning sunset views",
      "address": "West coast, Koh Lipe, Satun 91000",
      "lat": 6.4862,
      "lng": 99.2948,
      "website": "https://www.google.com/maps/search/Sunset+Beach+Koh+Lipe"
    },
    {
      "id": "lipe_chadocliff",
      "hotel_id": "koh_lipe_lipe_beach",
      "category": "attraction",
      "name": "Chado Cliff Viewpoint",
      "type": "nature",
      "desc": "Hike on Koh Adang for panoramic views",
      "address": "Koh Adang, Tarutao National Marine Park",
      "lat": 6.538,
      "lng": 99.282,
      "website": "https://www.google.com/maps/search/Chado+Cliff+Koh+Adang"
    },
    {
      "id": "lipe_pattayabeach",
      "hotel_id": "koh_lipe_lipe_beach",
      "category": "attraction",
      "name": "Pattaya Beach",
      "type": "beach",
      "desc": "Main beach with ferry pier & cafes",
      "address": "South coast, Koh Lipe, Satun 91000",
      "lat": 6.483,
      "lng": 99.299,
      "website": "https://www.google.com/maps/search/Pattaya+Beach+Koh+Lipe"
    },
    {
      "id": "lipe_jacks",
      "hotel_id": "koh_lipe_lipe_beach",
      "category": "bar",
      "name": "Jack's Jungle Bar",
      "type": "Beach Bar",
      "desc": "Legendary reggae bar with fire shows and buckets",
      "address": "Walking Street, Koh Lipe, Satun 91000",
      "lat": 6.4868,
      "lng": 99.3038,
      "website": "https://www.google.com/search?q=Jacks+Jungle+Bar+Koh+Lipe"
    },
    {
      "id": "lipe_karma",
      "hotel_id": "koh_lipe_lipe_beach",
      "category": "bar",
      "name": "Karma Beach Bar",
      "type": "Beach Bar",
      "desc": "Sunset cocktails on Pattaya Beach",
      "address": "Pattaya Beach, Koh Lipe, Satun 91000",
      "lat": 6.4835,
      "lng": 99.2982,
      "website": "https://www.google.com/search?q=Karma+Beach+Bar+Koh+Lipe"
    },
    {
      "id": "lipe_reggae",
      "hotel_id": "koh_lipe_lipe_beach",
      "category": "bar",
      "name": "Reggae Bar",
      "type": "Beach Bar",
      "desc": "Chilled vibes, cheap beers, live music some nights",
      "address": "Walking Street, Koh Lipe, Satun 91000",
      "lat": 6.4872,
      "lng": 99.3042,
      "website": "https://www.google.com/search?q=Reggae+Bar+Koh+Lipe"
    },
    {
      "id": "lipe_castaway",
      "hotel_id": "koh_lipe_lipe_beach",
      "category": "bar",
      "name": "Castaway Resort Bar",
      "type": "Beach Bar",
      "desc": "Romantic Sunrise Beach spot with fairy lights",
      "address": "Sunrise Beach, Koh Lipe, Satun 91000",
      "lat": 6.4915,
      "lng": 99.3078,
      "website": "https://www.google.com/search?q=Castaway+Resort+Bar+Koh+Lipe"
    },
    {
      "id": "lipe_oasis",
      "hotel_id": "koh_lipe_lipe_beach",
      "category": "bar",
      "name": "Oasis Bar",
      "type": "Beach Bar",
      "desc": "Late night party spot with DJ sets",
      "address": "Walking Street, Koh Lipe, Satun 91000",
      "lat": 6.4865,
      "lng": 99.3035,
      "website": "https://www.google.com/search?q=Oasis+Bar+Koh+Lipe"
    },
    {
      "id": "libong_ledugong_rest",
      "hotel_id": "koh_libong_dugong",
      "category": "dinner",
      "name": "Le Dugong Restaurant",
      "type": "Thai/Western",
      "desc": "Resort restaurant with sea views",
      "address": "15 Moo 5, Koh Libong, Kantang, Trang 92110",
      "lat": 7.2283,
      "lng": 99.3667
    },
    {
      "id": "libong_libongbeach",
      "hotel_id": "koh_libong_dugong",
      "category": "dinner",
      "name": "Libong Beach Resort",
      "type": "Thai/Seafood",
      "desc": "Fresh seafood by the beach",
      "address": "Haad Lang Khao, Koh Libong, Trang 92110",
      "lat": 7.232,
      "lng": 99.368
    },
    {
      "id": "libong_andalay",
      "hotel_id": "koh_libong_dugong",
      "category": "dinner",
      "name": "Andalay Beach Resort",
      "type": "Thai",
      "desc": "Relaxed beachfront dining",
      "address": "Koh Libong, Kantang, Trang 92110",
      "lat": 7.23,
      "lng": 99.3695
    },
    {
      "id": "libong_pier",
      "hotel_id": "koh_libong_dugong",
      "category": "dinner",
      "name": "Pier Restaurant",
      "type": "Thai/Seafood",
      "desc": "Dine over the water watching fish below",
      "address": "Batu Bute Pier, Koh Libong, Trang 92110",
      "lat": 7.215,
      "lng": 99.405
    },
    {
      "id": "libong_starcoffee",
      "hotel_id": "koh_libong_dugong",
      "category": "dinner",
      "name": "Star Coffee Bar",
      "type": "Thai/Western",
      "desc": "Local favorite run by helpful owner",
      "address": "Main road, Koh Libong, Trang 92110",
      "lat": 7.22,
      "lng": 99.385
    },
    {
      "id": "libong_streetfood",
      "hotel_id": "koh_libong_dugong",
      "category": "lunch",
      "name": "Morning Street Food",
      "type": "Thai",
      "desc": "Fried chicken, noodles & sticky rice",
      "address": "Near school, Koh Libong, Trang 92110",
      "lat": 7.218,
      "lng": 99.39
    },
    {
      "id": "libong_starcoffee_lunch",
      "hotel_id": "koh_libong_dugong",
      "category": "lunch",
      "name": "Star Coffee Cafe",
      "type": "Cafe",
      "desc": "Coffee, smoothies & light meals",
      "address": "Main road, Koh Libong, Trang 92110",
      "lat": 7.22,
      "lng": 99.385
    },
    {
      "id": "libong_muslim_rest",
      "hotel_id": "koh_libong_dugong",
      "category": "lunch",
      "name": "Muslim Village Restaurant",
      "type": "Thai/Halal",
      "desc": "Authentic halal Thai food in the fishing village",
      "address": "Batu Bute Village, Koh Libong, Trang 92110",
      "lat": 7.2155,
      "lng": 99.404
    },
    {
      "id": "libong_riverside",
      "hotel_id": "koh_libong_dugong",
      "category": "lunch",
      "name": "Riverside Noodles",
      "type": "Thai",
      "desc": "Boat noodles & Thai classics by the water",
      "address": "Near pier, Koh Libong, Trang 92110",
      "lat": 7.2165,
      "lng": 99.402
    },
    {
      "id": "libong_mango",
      "hotel_id": "koh_libong_dugong",
      "category": "lunch",
      "name": "Mango Tree Cafe",
      "type": "Cafe",
      "desc": "Fresh fruit shakes & simple Thai dishes",
      "address": "Main road, Koh Libong, Trang 92110",
      "lat": 7.221,
      "lng": 99.387
    },
    {
      "id": "libong_dugong_watch",
      "hotel_id": "koh_libong_dugong",
      "category": "attraction",
      "name": "Dugong Watching",
      "type": "wildlife",
      "desc": "See rare sea cows in their natural habitat",
      "address": "Seagrass beds, East coast Koh Libong",
      "lat": 7.205,
      "lng": 99.42,
      "website": "https://www.google.com/maps/search/Dugong+Watching+Koh+Libong"
    },
    {
      "id": "libong_stonebridge",
      "hotel_id": "koh_libong_dugong",
      "category": "attraction",
      "name": "Stone Bridge",
      "type": "nature",
      "desc": "Natural rock formation with tunnel to sea",
      "address": "West coast, Koh Libong, Trang 92110",
      "lat": 7.245,
      "lng": 99.35,
      "website": "https://www.google.com/maps/search/Stone+Bridge+Koh+Libong"
    },
    {
      "id": "libong_batubute",
      "hotel_id": "koh_libong_dugong",
      "category": "attraction",
      "name": "Batu Bute Village",
      "type": "cultural",
      "desc": "Colorful fishing village with stilt houses",
      "address": "Batu Bute, Koh Libong, Trang 92110",
      "lat": 7.215,
      "lng": 99.405,
      "website": "https://www.google.com/maps/search/Batu+Bute+Village+Koh+Libong"
    },
    {
      "id": "libong_langkhao",
      "hotel_id": "koh_libong_dugong",
      "category": "attraction",
      "name": "Haad Lang Khao Beach",
      "type": "beach",
      "desc": "Main swimming beach with calm waters",
      "address": "West coast, Koh Libong, Trang 92110",
      "lat": 7.23,
      "lng": 99.365,
      "website": "https://www.google.com/maps/search/Haad+Lang+Khao+Beach+Koh+Libong"
    },
    {
      "id": "libong_dugongtower",
      "hotel_id": "koh_libong_dugong",
      "category": "attraction",
      "name": "Dugong Spotting Tower",
      "type": "wildlife",
      "desc": "5-story tower at end of Leekpai Pier",
      "address": "Leekpai Pier, Koh Libong, Trang 92110",
      "lat": 7.21,
      "lng": 99.41,
      "website": "https://www.google.com/maps/search/Dugong+Spotting+Tower+Koh+Libong"
    },
    {
      "id": "libong_resortbar",
      "hotel_id": "koh_libong_dugong",
      "category": "bar",
      "name": "Le Dugong Resort Bar",
      "type": "Resort Bar",
      "desc": "Only real bar on the island - cold beers at sunset",
      "address": "15 Moo 5, Koh Libong, Trang 92110",
      "lat": 7.2283,
      "lng": 99.3667,
      "website": "https://www.google.com/search?q=Le+Dugong+Resort+Koh+Libong"
    },
    {
      "id": "kradan_beach_resort_rest",
      "hotel_id": "koh_kradan_kradan_beach",
      "category": "dinner",
      "name": "Kradan Beach Resort Restaurant",
      "type": "Thai/Western",
      "desc": "Main resort restaurant on the sand",
      "address": "Koh Kradan, Kantang, Trang 92110",
      "lat": 7.3127,
      "lng": 99.2564
    },
    {
      "id": "kradan_sevenseas",
      "hotel_id": "koh_kradan_kradan_beach",
      "category": "dinner",
      "name": "The Sevenseas Restaurant",
      "type": "Thai/Seafood",
      "desc": "Upscale resort dining",
      "address": "Sevenseas Resort, Koh Kradan, Trang 92110",
      "lat": 7.3098,
      "lng": 99.251
    },
    {
      "id": "kradan_mali",
      "hotel_id": "koh_kradan_kradan_beach",
      "category": "dinner",
      "name": "Mali Resort Restaurant",
      "type": "Western",
      "desc": "Best burgers & pizza on the island",
      "address": "Mali Resort, Koh Kradan, Trang 92110",
      "lat": 7.312,
      "lng": 99.253
    },
    {
      "id": "kradan_kalume",
      "hotel_id": "koh_kradan_kradan_beach",
      "category": "dinner",
      "name": "Kalume Restaurant",
      "type": "Italian",
      "desc": "Outstanding Italian with ocean views",
      "address": "Koh Kradan, Trang 92110",
      "lat": 7.308,
      "lng": 99.252
    },
    {
      "id": "kradan_reef",
      "hotel_id": "koh_kradan_kradan_beach",
      "category": "dinner",
      "name": "Reef Resort Restaurant",
      "type": "Thai/Western",
      "desc": "Beachfront dining under the stars",
      "address": "Reef Resort, Koh Kradan, Trang 92110",
      "lat": 7.315,
      "lng": 99.256,
      "website": "https://www.reefresortkradan.com/"
    },
    {
      "id": "kradan_nationalpark",
      "hotel_id": "koh_kradan_kradan_beach",
      "category": "lunch",
      "name": "National Park Restaurant",
      "type": "Thai",
      "desc": "Budget-friendly Thai classics",
      "address": "National Park area, Koh Kradan, Trang 92110",
      "lat": 7.316,
      "lng": 99.257
    },
    {
      "id": "kradan_beachbar",
      "hotel_id": "koh_kradan_kradan_beach",
      "category": "lunch",
      "name": "Paradise Beach Bar",
      "type": "Cafe",
      "desc": "Smoothies & snacks on the sand",
      "address": "Paradise Beach, Koh Kradan, Trang 92110",
      "lat": 7.3145,
      "lng": 99.255
    },
    {
      "id": "kradan_castaway",
      "hotel_id": "koh_kradan_kradan_beach",
      "category": "lunch",
      "name": "Castaway Beach Cafe",
      "type": "Thai/Western",
      "desc": "Relaxed beachfront cafe with Thai & Western bites",
      "address": "North Paradise Beach, Koh Kradan, Trang 92110",
      "lat": 7.318,
      "lng": 99.2575
    },
    {
      "id": "kradan_sunrise_cafe",
      "hotel_id": "koh_kradan_kradan_beach",
      "category": "lunch",
      "name": "Sunrise Point Cafe",
      "type": "Cafe",
      "desc": "Coffee & breakfast with morning sea views",
      "address": "East side, Koh Kradan, Trang 92110",
      "lat": 7.311,
      "lng": 99.258
    },
    {
      "id": "kradan_kokonut",
      "hotel_id": "koh_kradan_kradan_beach",
      "category": "lunch",
      "name": "Kokonut Kitchen",
      "type": "Thai",
      "desc": "Home-style Thai cooking by a local family",
      "address": "Koh Kradan, Trang 92110",
      "lat": 7.3135,
      "lng": 99.2545
    },
    {
      "id": "kradan_paradise_reef",
      "hotel_id": "koh_kradan_kradan_beach",
      "category": "diving",
      "name": "Paradise Beach Reef",
      "type": "2-8m",
      "desc": "Staghorn corals, reef fish, octopus - snorkel from beach",
      "address": "North Paradise Beach, Koh Kradan",
      "lat": 7.3195,
      "lng": 99.258
    },
    {
      "id": "kradan_kohrok",
      "hotel_id": "koh_kradan_kradan_beach",
      "category": "diving",
      "name": "Koh Rok",
      "type": "5-25m",
      "desc": "Pristine reefs, manta rays, whale sharks in season",
      "address": "Koh Rok Nai & Koh Rok Nok, Mu Ko Lanta National Park",
      "lat": 7.208,
      "lng": 99.058
    },
    {
      "id": "kradan_emerald",
      "hotel_id": "koh_kradan_kradan_beach",
      "category": "attraction",
      "name": "Emerald Cave (Tham Morakot)",
      "type": "nature",
      "desc": "Swim through dark cave to hidden lagoon",
      "address": "West coast, Koh Mook, Trang Province",
      "lat": 7.3695,
      "lng": 99.292,
      "website": "https://www.google.com/maps/search/Emerald+Cave+Tham+Morakot+Koh+Mook"
    },
    {
      "id": "kradan_paradisebeach",
      "hotel_id": "koh_kradan_kradan_beach",
      "category": "attraction",
      "name": "Paradise Beach",
      "type": "beach",
      "desc": "1.5km of pristine white sand",
      "address": "East coast, Koh Kradan, Trang 92110",
      "lat": 7.314,
      "lng": 99.255,
      "website": "https://www.google.com/maps/search/Paradise+Beach+Koh+Kradan"
    },
    {
      "id": "kradan_aoniang",
      "hotel_id": "koh_kradan_kradan_beach",
      "category": "attraction",
      "name": "Ao Niang Beach",
      "type": "beach",
      "desc": "Secluded cove with best snorkeling",
      "address": "South Koh Kradan, Trang 92110",
      "lat": 7.305,
      "lng": 99.248,
      "website": "https://www.google.com/maps/search/Ao+Niang+Beach+Koh+Kradan"
    },
    {
      "id": "kradan_jungletrek",
      "hotel_id": "koh_kradan_kradan_beach",
      "category": "attraction",
      "name": "Jungle Trek",
      "type": "nature",
      "desc": "Trail through jungle to hidden beaches",
      "address": "Central Koh Kradan, Trang 92110",
      "lat": 7.31,
      "lng": 99.25,
      "website": "https://www.google.com/maps/search/Koh+Kradan+Jungle+Trek"
    },
    {
      "id": "kradan_kayaking",
      "hotel_id": "koh_kradan_kradan_beach",
      "category": "attraction",
      "name": "Kayaking & Paddleboarding",
      "type": "activity",
      "desc": "Explore crystal clear waters by kayak",
      "address": "Paradise Beach, Koh Kradan, Trang 92110",
      "lat": 7.3145,
      "lng": 99.2555,
      "website": "https://www.google.com/maps/search/Kayaking+Koh+Kradan"
    },
    {
      "id": "kradan_sevenseas_bar",
      "hotel_id": "koh_kradan_kradan_beach",
      "category": "bar",
      "name": "Sevenseas Bar",
      "type": "Resort Bar",
      "desc": "Upscale resort bar with sunset views",
      "address": "Sevenseas Resort, Koh Kradan, Trang 92110",
      "lat": 7.3098,
      "lng": 99.251,
      "website": "https://www.google.com/search?q=Sevenseas+Resort+Koh+Kradan"
    },
    {
      "id": "kradan_reef_bar",
      "hotel_id": "koh_kradan_kradan_beach",
      "category": "bar",
      "name": "Reef Resort Beach Bar",
      "type": "Beach Bar",
      "desc": "Relaxed beachfront drinks under the stars",
      "address": "Reef Resort, Koh Kradan, Trang 92110",
      "lat": 7.315,
      "lng": 99.256,
      "website": "https://www.reefresortkradan.com/"
    },
    {
      "id": "lanta_timeforlime",
      "hotel_id": "koh_lanta_relax_bay",
      "category": "dinner",
      "name": "Time for Lime",
      "type": "Thai",
      "desc": "Cooking school restaurant, creative Thai",
      "address": "72/2 Moo 3, Klong Dao Beach, Koh Lanta 81150",
      "lat": 7.6428,
      "lng": 99.0315,
      "website": "https://timeforlime.net/"
    },
    {
      "id": "lanta_redsnapper",
      "hotel_id": "koh_lanta_relax_bay",
      "category": "dinner",
      "name": "Red Snapper",
      "type": "Seafood",
      "desc": "Fresh seafood with island views",
      "address": "Long Beach, Koh Lanta 81150",
      "lat": 7.581,
      "lng": 99.031,
      "website": "https://www.google.com/search?q=Red+Snapper+Restaurant+Koh+Lanta"
    },
    {
      "id": "lanta_yawee",
      "hotel_id": "koh_lanta_relax_bay",
      "category": "dinner",
      "name": "Yawee Restaurant",
      "type": "Thai",
      "desc": "Famous family-run spot, amazing wings",
      "address": "Main road, Koh Lanta 81150",
      "lat": 7.56,
      "lng": 99.042
    },
    {
      "id": "lanta_whereelse",
      "hotel_id": "koh_lanta_relax_bay",
      "category": "dinner",
      "name": "Where Else",
      "type": "Thai/Western",
      "desc": "Treehouse dining with hammocks",
      "address": "Klong Dao, Koh Lanta 81150",
      "lat": 7.635,
      "lng": 99.033
    },
    {
      "id": "lanta_funkyfish",
      "hotel_id": "koh_lanta_relax_bay",
      "category": "dinner",
      "name": "Funky Fish",
      "type": "Seafood",
      "desc": "Beachfront with live reggae music",
      "address": "Long Beach, Koh Lanta 81150",
      "lat": 7.575,
      "lng": 99.03
    },
    {
      "id": "lanta_drunkensailors",
      "hotel_id": "koh_lanta_relax_bay",
      "category": "lunch",
      "name": "Drunken Sailors Coffee",
      "type": "Cafe",
      "desc": "Best coffee on the island",
      "address": "116 Moo 5, Kantiang Bay, Koh Lanta 81150",
      "lat": 7.4912,
      "lng": 99.034
    },
    {
      "id": "lanta_kinburger",
      "hotel_id": "koh_lanta_relax_bay",
      "category": "lunch",
      "name": "Kinburger",
      "type": "Western",
      "desc": "Great burgers at local prices",
      "address": "Long Beach, Koh Lanta 81150",
      "lat": 7.58,
      "lng": 99.0315,
      "website": "https://www.instagram.com/kinburgerlanta/"
    },
    {
      "id": "lanta_pattys",
      "hotel_id": "koh_lanta_relax_bay",
      "category": "lunch",
      "name": "Patty's Secret Garden",
      "type": "Thai/Western",
      "desc": "Beachfront cafe with sunset views",
      "address": "Long Beach, Koh Lanta 81150",
      "lat": 7.578,
      "lng": 99.0295
    },
    {
      "id": "lanta_nightmarket",
      "hotel_id": "koh_lanta_relax_bay",
      "category": "lunch",
      "name": "Lanta Night Market",
      "type": "Street Food",
      "desc": "Authentic Thai street food stalls",
      "address": "Saladan, Koh Lanta 81150",
      "lat": 7.648,
      "lng": 99.04
    },
    {
      "id": "lanta_tamarind",
      "hotel_id": "koh_lanta_relax_bay",
      "category": "lunch",
      "name": "Tamarind",
      "type": "Thai",
      "desc": "Excellent papaya salad & green curry",
      "address": "Long Beach, Koh Lanta 81150",
      "lat": 7.582,
      "lng": 99.032
    },
    {
      "id": "lanta_oldtown",
      "hotel_id": "koh_lanta_relax_bay",
      "category": "attraction",
      "name": "Old Town Lanta",
      "type": "cultural",
      "desc": "Historic sea gypsy stilt houses & cafes",
      "address": "Old Town, East coast, Koh Lanta 81150",
      "lat": 7.533,
      "lng": 99.0865,
      "website": "https://www.google.com/maps/search/Old+Town+Lanta+Koh+Lanta"
    },
    {
      "id": "lanta_nationalpark",
      "hotel_id": "koh_lanta_relax_bay",
      "category": "attraction",
      "name": "Mu Ko Lanta National Park",
      "type": "nature",
      "desc": "Lighthouse, beaches & jungle trails",
      "address": "Southern tip, Koh Lanta 81150",
      "lat": 7.47,
      "lng": 99.0985,
      "website": "https://www.thainationalparks.com/mu-ko-lanta-national-park"
    },
    {
      "id": "lanta_longbeach",
      "hotel_id": "koh_lanta_relax_bay",
      "category": "attraction",
      "name": "Long Beach (Phra Ae)",
      "type": "beach",
      "desc": "Main beach strip with bars & restaurants",
      "address": "Long Beach, Koh Lanta 81150",
      "lat": 7.575,
      "lng": 99.028,
      "website": "https://www.google.com/maps/search/Long+Beach+Phra+Ae+Koh+Lanta"
    },
    {
      "id": "lanta_kantiang",
      "hotel_id": "koh_lanta_relax_bay",
      "category": "attraction",
      "name": "Kantiang Bay",
      "type": "beach",
      "desc": "Stunning secluded bay with calm waters",
      "address": "Kantiang Bay, Koh Lanta 81150",
      "lat": 7.492,
      "lng": 99.031,
      "website": "https://www.google.com/maps/search/Kantiang+Bay+Koh+Lanta"
    },
    {
      "id": "lanta_caves",
      "hotel_id": "koh_lanta_relax_bay",
      "category": "attraction",
      "name": "Khao Mai Kaew Caves",
      "type": "nature",
      "desc": "Explore stalactite caves in the jungle",
      "address": "Central Koh Lanta 81150",
      "lat": 7.52,
      "lng": 99.06,
      "website": "https://www.google.com/maps/search/Khao+Mai+Kaew+Caves+Koh+Lanta"
    },
    {
      "id": "lanta_kohhaa",
      "hotel_id": "koh_lanta_relax_bay",
      "category": "diving",
      "name": "Koh Haa Lagoon",
      "type": "5-30m",
      "desc": "Cathedral cave, pristine corals, seahorses & ghost pipefish",
      "address": "Koh Haa Islands, 16km west of Koh Lanta",
      "lat": 7.429,
      "lng": 98.897
    },
    {
      "id": "lanta_bidanok",
      "hotel_id": "koh_lanta_relax_bay",
      "category": "diving",
      "name": "Koh Bida Nok",
      "type": "8-28m",
      "desc": "Leopard sharks, stunning wall dive near Phi Phi",
      "address": "South of Phi Phi Ley, Krabi Province",
      "lat": 7.6534,
      "lng": 98.7638
    },
    {
      "id": "lanta_hindaeng",
      "hotel_id": "koh_lanta_relax_bay",
      "category": "diving",
      "name": "Hin Daeng",
      "type": "10-50m",
      "desc": "Red rock, manta rays, whale sharks, world-class site",
      "address": "55km south of Koh Lanta, Andaman Sea",
      "lat": 7.1461,
      "lng": 98.824
    },
    {
      "id": "lanta_hinmuang",
      "hotel_id": "koh_lanta_relax_bay",
      "category": "diving",
      "name": "Hin Muang",
      "type": "8-60m",
      "desc": "Purple rock, deepest wall in Thailand, big pelagics",
      "address": "500m from Hin Daeng, Andaman Sea",
      "lat": 7.1594,
      "lng": 98.8313
    },
    {
      "id": "lanta_pangea",
      "hotel_id": "koh_lanta_relax_bay",
      "category": "bar",
      "name": "Pangea Beach Bar",
      "type": "Beach Bar",
      "desc": "Best sunset spot with live reggae and fire shows",
      "address": "Long Beach, Koh Lanta 81150",
      "lat": 7.578,
      "lng": 99.0285,
      "website": "https://www.google.com/search?q=Pangea+Beach+Bar+Koh+Lanta"
    },
    {
      "id": "lanta_opium",
      "hotel_id": "koh_lanta_relax_bay",
      "category": "bar",
      "name": "Opium Bar",
      "type": "Beach Bar",
      "desc": "Bohemian beachfront bar with hookah and cocktails",
      "address": "Long Beach, Koh Lanta 81150",
      "lat": 7.576,
      "lng": 99.029,
      "website": "https://www.google.com/search?q=Opium+Bar+Koh+Lanta"
    },
    {
      "id": "lanta_irishembassy",
      "hotel_id": "koh_lanta_relax_bay",
      "category": "bar",
      "name": "The Irish Embassy",
      "type": "Pub",
      "desc": "Proper pub with pool tables, sports TV, and Guinness",
      "address": "Saladan, Koh Lanta 81150",
      "lat": 7.647,
      "lng": 99.0395,
      "website": "https://www.google.com/search?q=Irish+Embassy+Koh+Lanta"
    },
    {
      "id": "lanta_ting",
      "hotel_id": "koh_lanta_relax_bay",
      "category": "bar",
      "name": "Ting Rai Bay Bar",
      "type": "Beach Bar",
      "desc": "Chilled bar at stunning Kantiang Bay",
      "address": "Kantiang Bay, Koh Lanta 81150",
      "lat": 7.4925,
      "lng": 99.0305,
      "website": "https://www.google.com/search?q=Ting+Rai+Bay+Koh+Lanta"
    },
    {
      "id": "lanta_freedom",
      "hotel_id": "koh_lanta_relax_bay",
      "category": "bar",
      "name": "Freedom Bar",
      "type": "Beach Bar",
      "desc": "Rasta vibes, cheap buckets, beach bonfire nights",
      "address": "Long Beach, Koh Lanta 81150",
      "lat": 7.58,
      "lng": 99.028,
      "website": "https://www.google.com/search?q=Freedom+Bar+Koh+Lanta"
    },
    {
      "id": "bkk2_deck",
      "hotel_id": "bangkok_casa_vimaya",
      "category": "dinner",
      "name": "The Deck by Arun Residence",
      "type": "Thai/Western",
      "desc": "Wat Arun views, rooftop dining",
      "address": "36-38 Soi Pratoo Nok Yoong, Maharat Road, Rattanakosin, Bangkok 10200",
      "lat": 13.7448,
      "lng": 100.4898,
      "website": "https://www.arunresidence.com/"
    },
    {
      "id": "bkk2_sirocco",
      "hotel_id": "bangkok_casa_vimaya",
      "category": "dinner",
      "name": "Sirocco at Lebua",
      "type": "Mediterranean",
      "desc": "Famous sky bar from Hangover II",
      "address": "1055 Si Lom Road, Silom, Bang Rak, Bangkok 10500",
      "lat": 13.7218,
      "lng": 100.5153,
      "website": "https://lebua.com/restaurants/sirocco/"
    },
    {
      "id": "bkk2_err",
      "hotel_id": "bangkok_casa_vimaya",
      "category": "dinner",
      "name": "Err Urban Rustic Thai",
      "type": "Thai",
      "desc": "Hip Thai street food elevated",
      "address": "394/35 Maharat Road, Rattanakosin, Phra Nakhon, Bangkok 10200",
      "lat": 13.7468,
      "lng": 100.4935,
      "website": "https://errurbanrusticthai.co.th/"
    },
    {
      "id": "bkk2_salarattanakosin",
      "hotel_id": "bangkok_casa_vimaya",
      "category": "dinner",
      "name": "Sala Rattanakosin",
      "type": "Thai",
      "desc": "Rooftop dining with Wat Arun views",
      "address": "39 Maharat Road, Rattanakosin, Bangkok 10200",
      "lat": 13.7455,
      "lng": 100.4905,
      "website": "https://www.google.com/search?q=Sala+Rattanakosin+Bangkok+restaurant"
    },
    {
      "id": "bkk2_supanniga",
      "hotel_id": "bangkok_casa_vimaya",
      "category": "dinner",
      "name": "Supanniga Eating Room",
      "type": "Thai",
      "desc": "Eastern Thai cuisine by the river",
      "address": "392/25-26 Maharat Road, Bangkok 10200",
      "lat": 13.746,
      "lng": 100.4925,
      "website": "https://www.supannigaeatingroom.com/"
    },
    {
      "id": "bkk2_yaowarat",
      "hotel_id": "bangkok_casa_vimaya",
      "category": "lunch",
      "name": "Yaowarat Street Food",
      "type": "Chinese/Thai",
      "desc": "Chinatown food crawl",
      "address": "Yaowarat Road, Samphanthawong, Bangkok 10100",
      "lat": 13.7388,
      "lng": 100.5093
    },
    {
      "id": "bkk2_talmai",
      "hotel_id": "bangkok_casa_vimaya",
      "category": "lunch",
      "name": "Talat Mai Market",
      "type": "Market",
      "desc": "200-year-old Chinatown market",
      "address": "Charoen Krung Road, Samphanthawong, Bangkok 10100",
      "lat": 13.7395,
      "lng": 100.5075
    },
    {
      "id": "bkk2_pakklongtalat",
      "hotel_id": "bangkok_casa_vimaya",
      "category": "lunch",
      "name": "Pak Khlong Talat",
      "type": "Market",
      "desc": "Famous flower market with food stalls",
      "address": "Chakphet Road, Phra Nakhon, Bangkok 10200",
      "lat": 13.7405,
      "lng": 100.497
    },
    {
      "id": "bkk2_thaprachan",
      "hotel_id": "bangkok_casa_vimaya",
      "category": "lunch",
      "name": "Tha Prachan Food Stalls",
      "type": "Street Food",
      "desc": "University area street food near Grand Palace",
      "address": "Tha Prachan, Phra Nakhon, Bangkok 10200",
      "lat": 13.7565,
      "lng": 100.4915
    },
    {
      "id": "bkk2_bluewhalecafe",
      "hotel_id": "bangkok_casa_vimaya",
      "category": "lunch",
      "name": "Blue Whale Cafe",
      "type": "Cafe",
      "desc": "Instagrammable blue lattes in old town",
      "address": "392/37 Maharat Road, Bangkok 10200",
      "lat": 13.747,
      "lng": 100.492,
      "website": "https://www.instagram.com/bluewhalebkk/"
    },
    {
      "id": "bkk2_iconsiam",
      "hotel_id": "bangkok_casa_vimaya",
      "category": "attraction",
      "name": "Icon Siam",
      "type": "activity",
      "desc": "Luxury mall with indoor floating market",
      "address": "299 Charoen Nakhon Road, Khlong Ton Sai, Khlong San, Bangkok 10600",
      "lat": 13.7267,
      "lng": 100.5097,
      "website": "https://www.iconsiam.com/"
    },
    {
      "id": "bkk2_chinatown",
      "hotel_id": "bangkok_casa_vimaya",
      "category": "attraction",
      "name": "Chinatown (Yaowarat)",
      "type": "cultural",
      "desc": "Street food paradise after dark",
      "address": "Yaowarat Road, Samphanthawong, Bangkok 10100",
      "lat": 13.7388,
      "lng": 100.5093,
      "website": "https://www.google.com/maps/search/Yaowarat+Chinatown+Bangkok"
    },
    {
      "id": "bkk2_asiatique",
      "hotel_id": "bangkok_casa_vimaya",
      "category": "attraction",
      "name": "Asiatique The Riverfront",
      "type": "activity",
      "desc": "Night market & entertainment complex",
      "address": "2194 Charoen Krung Road, Wat Phraya Krai, Bang Kho Laem, Bangkok 10120",
      "lat": 13.705,
      "lng": 100.501,
      "website": "https://www.asiatiquethailand.com/"
    },
    {
      "id": "bkk2_watpho",
      "hotel_id": "bangkok_casa_vimaya",
      "category": "attraction",
      "name": "Wat Pho",
      "type": "cultural",
      "desc": "Giant reclining Buddha & massage school",
      "address": "2 Sanam Chai Road, Phra Nakhon, Bangkok 10200",
      "lat": 13.7465,
      "lng": 100.493,
      "website": "https://www.watpho.com/"
    },
    {
      "id": "bkk2_rivercruise",
      "hotel_id": "bangkok_casa_vimaya",
      "category": "attraction",
      "name": "Chao Phraya River Cruise",
      "type": "activity",
      "desc": "Evening dinner cruise past lit temples",
      "address": "Various piers, Chao Phraya River, Bangkok",
      "lat": 13.74,
      "lng": 100.5,
      "website": "https://www.google.com/maps/search/Chao+Phraya+River+Cruise+Bangkok"
    },
    {
      "id": "bkk2_skybar",
      "hotel_id": "bangkok_casa_vimaya",
      "category": "bar",
      "name": "Sky Bar at Lebua",
      "type": "Rooftop",
      "desc": "The Hangover II bar - iconic Bangkok skyline views",
      "address": "State Tower, 1055 Silom Road, Bangkok 10500",
      "lat": 13.7218,
      "lng": 100.5153,
      "website": "https://lebua.com/restaurants/sky-bar/"
    },
    {
      "id": "bkk2_tep",
      "hotel_id": "bangkok_casa_vimaya",
      "category": "bar",
      "name": "Tep Bar",
      "type": "Thai Bar",
      "desc": "Traditional Thai spirits & live folk music in Chinatown",
      "address": "69-71 Soi Nana, Charoen Krung, Bangkok 10100",
      "lat": 13.7395,
      "lng": 100.5095,
      "website": "https://www.google.com/search?q=Tep+Bar+Bangkok"
    },
    {
      "id": "bkk2_teens",
      "hotel_id": "bangkok_casa_vimaya",
      "category": "bar",
      "name": "Teens of Thailand",
      "type": "Cocktail Bar",
      "desc": "Award-winning gin bar in a Chinatown shophouse",
      "address": "76 Soi Nana, Charoen Krung, Bangkok 10100",
      "lat": 13.7392,
      "lng": 100.5098,
      "website": "https://www.google.com/search?q=Teens+of+Thailand+Bar+Bangkok"
    },
    {
      "id": "bkk2_tropic",
      "hotel_id": "bangkok_casa_vimaya",
      "category": "bar",
      "name": "Tropic City",
      "type": "Tiki Bar",
      "desc": "Tropical tiki cocktails in Chinatown alley",
      "address": "Soi Nana, Charoen Krung, Bangkok 10100",
      "lat": 13.739,
      "lng": 100.51,
      "website": "https://www.google.com/search?q=Tropic+City+Bar+Bangkok"
    },
    {
      "id": "bkk2_ama",
      "hotel_id": "bangkok_casa_vimaya",
      "category": "bar",
      "name": "AMA",
      "type": "Wine Bar",
      "desc": "Natural wines & small plates in hidden old town location",
      "address": "45 Soi Nana, Charoen Krung, Bangkok 10100",
      "lat": 13.7388,
      "lng": 100.5092,
      "website": "https://www.google.com/search?q=AMA+Wine+Bar+Bangkok"
    },
    {
      "id": "bkk_le_du",
      "hotel_id": "bangkok_salil",
      "category": "dinner",
      "name": "Le Du",
      "type": "Thai",
      "desc": "Modern Thai tasting menus, 2 Michelin stars",
      "lat": 13.7245,
      "lng": 100.5298
    },
    {
      "id": "bkk_paste",
      "hotel_id": "bangkok_salil",
      "category": "dinner",
      "name": "Paste Bangkok",
      "type": "Thai",
      "desc": "Royal Thai cuisine revived, Michelin starred",
      "lat": 13.7438,
      "lng": 100.5468
    },
    {
      "id": "bkk_sorn",
      "hotel_id": "bangkok_salil",
      "category": "dinner",
      "name": "Sorn",
      "type": "Thai",
      "desc": "Southern Thai fine dining, 2 Michelin stars",
      "lat": 13.7182,
      "lng": 100.5712
    },
    {
      "id": "bkk_canvas",
      "hotel_id": "bangkok_salil",
      "category": "dinner",
      "name": "Canvas",
      "type": "European",
      "desc": "Creative European with Thai influences",
      "lat": 13.7298,
      "lng": 100.5815
    },
    {
      "id": "bkk_saawaan",
      "hotel_id": "bangkok_salil",
      "category": "dinner",
      "name": "Saawaan",
      "type": "Thai",
      "desc": "Sustainable Thai gastronomy, Michelin starred",
      "lat": 13.7165,
      "lng": 100.5385
    },
    {
      "id": "bkk_peep",
      "hotel_id": "bangkok_salil",
      "category": "lunch",
      "name": "Phed Phed",
      "type": "Thai",
      "desc": "Spicy northeastern Thai, legendary duck larb",
      "lat": 13.7412,
      "lng": 100.5623
    },
    {
      "id": "bkk_soulgreen",
      "hotel_id": "bangkok_salil",
      "category": "lunch",
      "name": "Soul Green",
      "type": "Healthy",
      "desc": "Organic bowls & smoothies in Thonglor",
      "lat": 13.7285,
      "lng": 100.5842
    },
    {
      "id": "bkk_raan",
      "hotel_id": "bangkok_salil",
      "category": "lunch",
      "name": "Raan Jay Fai",
      "type": "Thai",
      "desc": "No-frills legendary crab curry spot",
      "lat": 13.754,
      "lng": 100.506
    },
    {
      "id": "bkk_roast",
      "hotel_id": "bangkok_salil",
      "category": "lunch",
      "name": "Roast Coffee",
      "type": "Cafe",
      "desc": "Specialty coffee & brunch in Thonglor",
      "lat": 13.7302,
      "lng": 100.5798
    },
    {
      "id": "bkk_mikkeller",
      "hotel_id": "bangkok_salil",
      "category": "lunch",
      "name": "Mikkeller Bangkok",
      "type": "Western",
      "desc": "Craft beer bar with great food",
      "lat": 13.7395,
      "lng": 100.5565
    },
    {
      "id": "bkk_lumpini",
      "hotel_id": "bangkok_salil",
      "category": "attraction",
      "name": "Lumpini Park",
      "type": "nature",
      "desc": "City's green lung with monitor lizards",
      "lat": 13.7308,
      "lng": 100.5418
    },
    {
      "id": "bkk_artbox",
      "hotel_id": "bangkok_salil",
      "category": "attraction",
      "name": "Artbox Night Market",
      "type": "nightlife",
      "desc": "Trendy container market with live music",
      "lat": 13.7465,
      "lng": 100.5612
    },
    {
      "id": "bkk_emquartier",
      "hotel_id": "bangkok_salil",
      "category": "attraction",
      "name": "EmQuartier Mall",
      "type": "activity",
      "desc": "Luxury mall with rooftop garden",
      "lat": 13.7312,
      "lng": 100.5695
    },
    {
      "id": "bkk_mahanakhon",
      "hotel_id": "bangkok_salil",
      "category": "attraction",
      "name": "Mahanakhon SkyWalk",
      "type": "activity",
      "desc": "Glass floor observation deck at 314m",
      "lat": 13.7235,
      "lng": 100.529
    },
    {
      "id": "bkk_benjakitti",
      "hotel_id": "bangkok_salil",
      "category": "attraction",
      "name": "Benjakitti Park",
      "type": "nature",
      "desc": "Lakeside park with elevated skywalk",
      "lat": 13.7225,
      "lng": 100.56
    },
    {
      "id": "lipe_monkey",
      "hotel_id": "koh_lipe_lipe_beach",
      "category": "dinner",
      "name": "Monkey Bar & Restaurant",
      "type": "Thai/Western",
      "desc": "Lively beachfront spot with Thai & pizza",
      "lat": 6.4875,
      "lng": 99.3035
    },
    {
      "id": "lipe_nees",
      "hotel_id": "koh_lipe_lipe_beach",
      "category": "dinner",
      "name": "Nee's Kitchen",
      "type": "Thai",
      "desc": "Authentic home-style Thai cooking",
      "lat": 6.4862,
      "lng": 99.3048
    },
    {
      "id": "lipe_daya",
      "hotel_id": "koh_lipe_lipe_beach",
      "category": "dinner",
      "name": "Daya Resort Restaurant",
      "type": "Thai/Seafood",
      "desc": "Romantic dining on Sunrise Beach",
      "lat": 6.4925,
      "lng": 99.3085
    },
    {
      "id": "lipe_cafe_lipe",
      "hotel_id": "koh_lipe_lipe_beach",
      "category": "dinner",
      "name": "Cafe Lipe",
      "type": "International",
      "desc": "European-run cafe with diverse menu",
      "lat": 6.4868,
      "lng": 99.3042
    },
    {
      "id": "lipe_bloom",
      "hotel_id": "koh_lipe_lipe_beach",
      "category": "dinner",
      "name": "Bloom Cafe",
      "type": "Thai/Western",
      "desc": "Garden setting with excellent cocktails",
      "lat": 6.4858,
      "lng": 99.305
    },
    {
      "id": "lipe_art",
      "hotel_id": "koh_lipe_lipe_beach",
      "category": "lunch",
      "name": "Art Gallery Cafe",
      "type": "Cafe",
      "desc": "Coffee & light bites with local art",
      "lat": 6.487,
      "lng": 99.3038
    },
    {
      "id": "lipe_salisa",
      "hotel_id": "koh_lipe_lipe_beach",
      "category": "lunch",
      "name": "Salisa Resort Cafe",
      "type": "Thai",
      "desc": "Beach cafe with great pad thai",
      "lat": 6.4922,
      "lng": 99.308
    },
    {
      "id": "lipe_coffee",
      "hotel_id": "koh_lipe_lipe_beach",
      "category": "lunch",
      "name": "Coffee Corner",
      "type": "Cafe",
      "desc": "Best espresso on the island",
      "lat": 6.4865,
      "lng": 99.3045
    },
    {
      "id": "lipe_papaya_lunch",
      "hotel_id": "koh_lipe_lipe_beach",
      "category": "lunch",
      "name": "Papaya Salad House",
      "type": "Isaan",
      "desc": "Fiery som tam & grilled chicken",
      "lat": 6.4873,
      "lng": 99.3032
    },
    {
      "id": "lipe_chill",
      "hotel_id": "koh_lipe_lipe_beach",
      "category": "lunch",
      "name": "Chill Out Bar",
      "type": "Thai/Western",
      "desc": "Relaxed beach shack with cold beers",
      "lat": 6.484,
      "lng": 99.2995
    },
    {
      "id": "lipe_snorkel_tour",
      "hotel_id": "koh_lipe_lipe_beach",
      "category": "attraction",
      "name": "4 Islands Snorkel Tour",
      "type": "activity",
      "desc": "Day trip to Koh Adang, Rawi, Jabang & Hin Ngam",
      "lat": 6.487,
      "lng": 99.304
    },
    {
      "id": "lipe_kayak",
      "hotel_id": "koh_lipe_lipe_beach",
      "category": "attraction",
      "name": "Kayak to Koh Adang",
      "type": "activity",
      "desc": "Paddle to neighboring island's beaches",
      "lat": 6.51,
      "lng": 99.285
    },
    {
      "id": "lipe_yoga",
      "hotel_id": "koh_lipe_lipe_beach",
      "category": "attraction",
      "name": "Beach Yoga Classes",
      "type": "activity",
      "desc": "Morning yoga sessions on Sunrise Beach",
      "lat": 6.4915,
      "lng": 99.3075
    },
    {
      "id": "lipe_tarutao",
      "hotel_id": "koh_lipe_lipe_beach",
      "category": "attraction",
      "name": "Tarutao Island Day Trip",
      "type": "nature",
      "desc": "Explore jungle trails & WWII history",
      "lat": 6.65,
      "lng": 99.65
    },
    {
      "id": "lipe_fishing",
      "hotel_id": "koh_lipe_lipe_beach",
      "category": "attraction",
      "name": "Sunset Fishing Trip",
      "type": "activity",
      "desc": "Traditional fishing with local boat",
      "lat": 6.485,
      "lng": 99.298
    },
    {
      "id": "libong_sunset",
      "hotel_id": "koh_libong_dugong",
      "category": "dinner",
      "name": "Sunset View Restaurant",
      "type": "Thai/Seafood",
      "desc": "Fresh catches with golden hour views",
      "lat": 7.228,
      "lng": 99.366
    },
    {
      "id": "libong_crab",
      "hotel_id": "koh_libong_dugong",
      "category": "dinner",
      "name": "Blue Crab Kitchen",
      "type": "Seafood",
      "desc": "Famous for soft-shell crab dishes",
      "lat": 7.219,
      "lng": 99.388
    },
    {
      "id": "libong_family",
      "hotel_id": "koh_libong_dugong",
      "category": "dinner",
      "name": "Family Home Restaurant",
      "type": "Thai",
      "desc": "Home cooking by welcoming local family",
      "lat": 7.2205,
      "lng": 99.382
    },
    {
      "id": "libong_fisherman",
      "hotel_id": "koh_libong_dugong",
      "category": "dinner",
      "name": "Fisherman's Hut",
      "type": "Thai/Seafood",
      "desc": "Simple seafood shack on the beach",
      "lat": 7.231,
      "lng": 99.369
    },
    {
      "id": "libong_papaya",
      "hotel_id": "koh_libong_dugong",
      "category": "dinner",
      "name": "Papaya Garden",
      "type": "Thai",
      "desc": "Garden restaurant with local produce",
      "lat": 7.2175,
      "lng": 99.3925
    },
    {
      "id": "libong_beach_shack",
      "hotel_id": "koh_libong_dugong",
      "category": "lunch",
      "name": "Beach Shack",
      "type": "Thai",
      "desc": "Basic but tasty beachfront bites",
      "lat": 7.2295,
      "lng": 99.3675
    },
    {
      "id": "libong_ice_cream",
      "hotel_id": "koh_libong_dugong",
      "category": "lunch",
      "name": "Coconut Ice Cream Stand",
      "type": "Dessert",
      "desc": "Fresh coconut ice cream & fruit shakes",
      "lat": 7.2185,
      "lng": 99.386
    },
    {
      "id": "libong_mangrove",
      "hotel_id": "koh_libong_dugong",
      "category": "attraction",
      "name": "Mangrove Forest Trail",
      "type": "nature",
      "desc": "Boardwalk through lush mangroves",
      "lat": 7.24,
      "lng": 99.355
    },
    {
      "id": "libong_rubber",
      "hotel_id": "koh_libong_dugong",
      "category": "attraction",
      "name": "Rubber Plantation Tour",
      "type": "cultural",
      "desc": "See traditional rubber tapping",
      "lat": 7.225,
      "lng": 99.375
    },
    {
      "id": "libong_mosque",
      "hotel_id": "koh_libong_dugong",
      "category": "attraction",
      "name": "Central Mosque",
      "type": "cultural",
      "desc": "Beautiful mosque serving the Muslim community",
      "lat": 7.216,
      "lng": 99.4
    },
    {
      "id": "libong_viewpoint",
      "hotel_id": "koh_libong_dugong",
      "category": "attraction",
      "name": "Libong Viewpoint",
      "type": "nature",
      "desc": "Hilltop views across the island",
      "lat": 7.235,
      "lng": 99.38
    },
    {
      "id": "libong_birdwatch",
      "hotel_id": "koh_libong_dugong",
      "category": "attraction",
      "name": "Birdwatching Hide",
      "type": "wildlife",
      "desc": "Spot migratory birds in the wetlands",
      "lat": 7.208,
      "lng": 99.415
    },
    {
      "id": "kradan_anantara",
      "hotel_id": "koh_kradan_kradan_beach",
      "category": "dinner",
      "name": "Anantara Si Kao Restaurant",
      "type": "Thai/International",
      "desc": "Upscale dining at the luxury resort",
      "lat": 7.3085,
      "lng": 99.2505
    },
    {
      "id": "kradan_sunset_rest",
      "hotel_id": "koh_kradan_kradan_beach",
      "category": "dinner",
      "name": "Sunset Terrace",
      "type": "Thai/Seafood",
      "desc": "BBQ seafood as the sun sets",
      "lat": 7.3155,
      "lng": 99.2555
    },
    {
      "id": "kradan_paradise_rest",
      "hotel_id": "koh_kradan_kradan_beach",
      "category": "dinner",
      "name": "Paradise Lost Restaurant",
      "type": "Thai/Western",
      "desc": "Cozy spot with candles on the beach",
      "lat": 7.314,
      "lng": 99.2548
    },
    {
      "id": "kradan_had_farang",
      "hotel_id": "koh_kradan_kradan_beach",
      "category": "dinner",
      "name": "Had Farang Kitchen",
      "type": "Thai",
      "desc": "Local family-run with fresh seafood",
      "lat": 7.3095,
      "lng": 99.2525
    },
    {
      "id": "kradan_moonlight",
      "hotel_id": "koh_kradan_kradan_beach",
      "category": "dinner",
      "name": "Moonlight Beach BBQ",
      "type": "Seafood",
      "desc": "Choose your seafood, cooked on the grill",
      "lat": 7.3165,
      "lng": 99.2565
    },
    {
      "id": "kradan_snorkel_cafe",
      "hotel_id": "koh_kradan_kradan_beach",
      "category": "lunch",
      "name": "Snorkel Point Cafe",
      "type": "Cafe",
      "desc": "Refreshments after snorkeling the reef",
      "lat": 7.319,
      "lng": 99.2575
    },
    {
      "id": "kradan_fruit_lady",
      "hotel_id": "koh_kradan_kradan_beach",
      "category": "lunch",
      "name": "Fruit Lady Stand",
      "type": "Thai",
      "desc": "Fresh fruit, coconuts & simple Thai",
      "lat": 7.3148,
      "lng": 99.2552
    },
    {
      "id": "kradan_sunset_point",
      "hotel_id": "koh_kradan_kradan_beach",
      "category": "attraction",
      "name": "Sunset Point",
      "type": "nature",
      "desc": "Best spot for dramatic sunsets",
      "lat": 7.307,
      "lng": 99.247
    },
    {
      "id": "kradan_snorkel_reef",
      "hotel_id": "koh_kradan_kradan_beach",
      "category": "attraction",
      "name": "North Reef Snorkeling",
      "type": "activity",
      "desc": "Colorful coral garden accessible from beach",
      "lat": 7.32,
      "lng": 99.259
    },
    {
      "id": "kradan_viewpoint",
      "hotel_id": "koh_kradan_kradan_beach",
      "category": "attraction",
      "name": "Kradan Viewpoint",
      "type": "nature",
      "desc": "Short hike to island panorama",
      "lat": 7.3115,
      "lng": 99.252
    },
    {
      "id": "kradan_wedding",
      "hotel_id": "koh_kradan_kradan_beach",
      "category": "attraction",
      "name": "Underwater Wedding Site",
      "type": "cultural",
      "desc": "Famous spot for Valentine's underwater weddings",
      "lat": 7.318,
      "lng": 99.258
    },
    {
      "id": "kradan_kohmook",
      "hotel_id": "koh_kradan_kradan_beach",
      "category": "attraction",
      "name": "Koh Mook Day Trip",
      "type": "activity",
      "desc": "Visit neighboring island & Emerald Cave",
      "lat": 7.3695,
      "lng": 99.292
    },
    {
      "id": "lanta_beautiful",
      "hotel_id": "koh_lanta_relax_bay",
      "category": "dinner",
      "name": "Beautiful Restaurant",
      "type": "Thai",
      "desc": "Oceanfront Thai with stunning views",
      "lat": 7.572,
      "lng": 99.0295
    },
    {
      "id": "lanta_same_same",
      "hotel_id": "koh_lanta_relax_bay",
      "category": "dinner",
      "name": "Same Same But Different",
      "type": "Thai/Western",
      "desc": "Eclectic menu with great cocktails",
      "lat": 7.642,
      "lng": 99.0325
    },
    {
      "id": "lanta_mango_house",
      "hotel_id": "koh_lanta_relax_bay",
      "category": "dinner",
      "name": "Mango House",
      "type": "Thai/Seafood",
      "desc": "Fresh seafood BBQ on the beach",
      "lat": 7.5835,
      "lng": 99.0288
    },
    {
      "id": "lanta_otto",
      "hotel_id": "koh_lanta_relax_bay",
      "category": "dinner",
      "name": "Otto's Bar & Restaurant",
      "type": "German/Thai",
      "desc": "German owner's fusion spot",
      "lat": 7.568,
      "lng": 99.031
    },
    {
      "id": "lanta_shanti",
      "hotel_id": "koh_lanta_relax_bay",
      "category": "dinner",
      "name": "Shanti Shanti",
      "type": "Thai/Indian",
      "desc": "Beachfront with Indian-Thai fusion",
      "lat": 7.577,
      "lng": 99.0285
    },
    {
      "id": "lanta_fruit",
      "hotel_id": "koh_lanta_relax_bay",
      "category": "lunch",
      "name": "Fruit Factory",
      "type": "Cafe",
      "desc": "Smoothie bowls & healthy bites",
      "lat": 7.5815,
      "lng": 99.0305
    },
    {
      "id": "lanta_bakery",
      "hotel_id": "koh_lanta_relax_bay",
      "category": "lunch",
      "name": "Swedish Bakery",
      "type": "Bakery",
      "desc": "Fresh bread, pastries & sandwiches",
      "lat": 7.6455,
      "lng": 99.038
    },
    {
      "id": "lanta_diamond",
      "hotel_id": "koh_lanta_relax_bay",
      "category": "lunch",
      "name": "Diamond Cliff Cafe",
      "type": "Cafe",
      "desc": "Clifftop cafe with amazing views",
      "lat": 7.498,
      "lng": 99.037
    },
    {
      "id": "lanta_khlong_dao",
      "hotel_id": "koh_lanta_relax_bay",
      "category": "lunch",
      "name": "Khlong Dao Beach BBQ",
      "type": "Thai",
      "desc": "Beachside grills at local prices",
      "lat": 7.638,
      "lng": 99.0315
    },
    {
      "id": "lanta_papaya",
      "hotel_id": "koh_lanta_relax_bay",
      "category": "lunch",
      "name": "Papaya Mama",
      "type": "Thai",
      "desc": "Authentic papaya salad specialist",
      "lat": 7.565,
      "lng": 99.042
    },
    {
      "id": "lanta_bamboo",
      "hotel_id": "koh_lanta_relax_bay",
      "category": "attraction",
      "name": "Bamboo Beach",
      "type": "beach",
      "desc": "Hidden beach in the national park",
      "lat": 7.465,
      "lng": 99.092
    },
    {
      "id": "lanta_monkey",
      "hotel_id": "koh_lanta_relax_bay",
      "category": "attraction",
      "name": "Monkey Trail",
      "type": "nature",
      "desc": "Jungle walk with wild monkeys",
      "lat": 7.51,
      "lng": 99.055
    },
    {
      "id": "lanta_viewpoint2",
      "hotel_id": "koh_lanta_relax_bay",
      "category": "attraction",
      "name": "Lanta Viewpoint",
      "type": "nature",
      "desc": "Panoramic hilltop photo spot",
      "lat": 7.5,
      "lng": 99.045
    },
    {
      "id": "lanta_cooking",
      "hotel_id": "koh_lanta_relax_bay",
      "category": "attraction",
      "name": "Thai Cooking Class",
      "type": "activity",
      "desc": "Learn to cook Thai classics",
      "lat": 7.64,
      "lng": 99.034
    },
    {
      "id": "lanta_elephant",
      "hotel_id": "koh_lanta_relax_bay",
      "category": "attraction",
      "name": "Lanta Elephant Sanctuary",
      "type": "wildlife",
      "desc": "Ethical elephant experience",
      "lat": 7.54,
      "lng": 99.065
    },
    {
      "id": "bkk2_somsakto",
      "hotel_id": "bangkok_casa_vimaya",
      "category": "dinner",
      "name": "Somsak Pu Ob",
      "type": "Thai",
      "desc": "Famous crab curry near the river",
      "lat": 13.7445,
      "lng": 100.492
    },
    {
      "id": "bkk2_steve",
      "hotel_id": "bangkok_casa_vimaya",
      "category": "dinner",
      "name": "Steve Cafe & Cuisine",
      "type": "Thai",
      "desc": "Canal-side dining with live music",
      "lat": 13.758,
      "lng": 100.4935
    },
    {
      "id": "bkk2_thewet",
      "hotel_id": "bangkok_casa_vimaya",
      "category": "dinner",
      "name": "Thewet Pier Restaurant",
      "type": "Thai",
      "desc": "Local favorite by the flower market",
      "lat": 13.762,
      "lng": 100.5015
    },
    {
      "id": "bkk2_methavalai",
      "hotel_id": "bangkok_casa_vimaya",
      "category": "dinner",
      "name": "Methavalai Sorndaeng",
      "type": "Thai",
      "desc": "Classic Thai since 1957",
      "lat": 13.751,
      "lng": 100.498
    },
    {
      "id": "bkk2_nara",
      "hotel_id": "bangkok_casa_vimaya",
      "category": "dinner",
      "name": "Nara Thai Cuisine",
      "type": "Thai",
      "desc": "Upscale Thai in Icon Siam",
      "lat": 13.7267,
      "lng": 100.5097
    },
    {
      "id": "bkk2_thanusingha",
      "hotel_id": "bangkok_casa_vimaya",
      "category": "lunch",
      "name": "Thanusingha Bakery",
      "type": "Bakery",
      "desc": "Historic 100-year-old bakery",
      "lat": 13.7395,
      "lng": 100.5085
    },
    {
      "id": "bkk2_naitoey",
      "hotel_id": "bangkok_casa_vimaya",
      "category": "lunch",
      "name": "Nai Toey Boat Noodles",
      "type": "Thai",
      "desc": "Traditional boat noodles",
      "lat": 13.748,
      "lng": 100.495
    },
    {
      "id": "bkk2_royal",
      "hotel_id": "bangkok_casa_vimaya",
      "category": "lunch",
      "name": "Royal India",
      "type": "Indian",
      "desc": "Classic Indian in Chinatown",
      "lat": 13.7385,
      "lng": 100.5088
    },
    {
      "id": "bkk2_sala_arun",
      "hotel_id": "bangkok_casa_vimaya",
      "category": "lunch",
      "name": "Sala Arun Cafe",
      "type": "Cafe",
      "desc": "Coffee with Wat Arun views",
      "lat": 13.745,
      "lng": 100.4895
    },
    {
      "id": "bkk2_nittaya",
      "hotel_id": "bangkok_casa_vimaya",
      "category": "lunch",
      "name": "Nittaya Kai Yang",
      "type": "Thai",
      "desc": "Famous grilled chicken stall",
      "lat": 13.756,
      "lng": 100.492
    },
    {
      "id": "bkk2_museum",
      "hotel_id": "bangkok_casa_vimaya",
      "category": "attraction",
      "name": "Museum Siam",
      "type": "cultural",
      "desc": "Interactive Thai history museum",
      "lat": 13.7458,
      "lng": 100.4922
    },
    {
      "id": "bkk2_flower",
      "hotel_id": "bangkok_casa_vimaya",
      "category": "attraction",
      "name": "Flower Market Walking Tour",
      "type": "activity",
      "desc": "Early morning flower market experience",
      "lat": 13.7405,
      "lng": 100.497
    },
    {
      "id": "bkk2_golden",
      "hotel_id": "bangkok_casa_vimaya",
      "category": "attraction",
      "name": "Golden Mount (Wat Saket)",
      "type": "cultural",
      "desc": "Climb 300 steps for panoramic views",
      "lat": 13.7535,
      "lng": 100.5068
    },
    {
      "id": "bkk2_artist",
      "hotel_id": "bangkok_casa_vimaya",
      "category": "attraction",
      "name": "Artist House",
      "type": "cultural",
      "desc": "Traditional puppet shows in old teak house",
      "lat": 13.7268,
      "lng": 100.4755
    },
    {
      "id": "bkk2_klong",
      "hotel_id": "bangkok_casa_vimaya",
      "category": "attraction",
      "name": "Khlong Boat Tour",
      "type": "activity",
      "desc": "Explore Bangkok's hidden canals",
      "lat": 13.742,
      "lng": 100.488
    },
    {
      "id": "libong_pier_lunch",
      "hotel_id": "koh_libong_dugong",
      "category": "lunch",
      "name": "Pier Side Cafe",
      "type": "Thai",
      "desc": "Quick bites near the ferry pier",
      "lat": 7.2148,
      "lng": 99.4045
    },
    {
      "id": "libong_seafood_lunch",
      "hotel_id": "koh_libong_dugong",
      "category": "lunch",
      "name": "Fresh Catch Lunch",
      "type": "Seafood",
      "desc": "Simple grilled fish & seafood",
      "lat": 7.229,
      "lng": 99.3685
    },
    {
      "id": "libong_noodle",
      "hotel_id": "koh_libong_dugong",
      "category": "lunch",
      "name": "Auntie's Noodle Shop",
      "type": "Thai",
      "desc": "Handmade noodles & Thai soups",
      "lat": 7.2195,
      "lng": 99.3865
    },
    {
      "id": "kradan_bbq_lunch",
      "hotel_id": "koh_kradan_kradan_beach",
      "category": "lunch",
      "name": "Beach BBQ Hut",
      "type": "Thai",
      "desc": "Grilled skewers & Thai salads",
      "lat": 7.3142,
      "lng": 99.2555
    },
    {
      "id": "kradan_smoothie",
      "hotel_id": "koh_kradan_kradan_beach",
      "category": "lunch",
      "name": "Smoothie Station",
      "type": "Cafe",
      "desc": "Fresh fruit smoothies & juices",
      "lat": 7.3152,
      "lng": 99.256
    },
    {
      "id": "kradan_thai_kitchen",
      "hotel_id": "koh_kradan_kradan_beach",
      "category": "lunch",
      "name": "Island Thai Kitchen",
      "type": "Thai",
      "desc": "Home-style Thai dishes daily",
      "lat": 7.3125,
      "lng": 99.2535
    }
  ]
}